 
>> gps_record_test
Connecting to uBlox on /dev/tty.usbserial-A1012WEE at 38400 baud
Connected to uBlox
Finished configuring uBlox
Success!

Recording...
Ublox-2 has a lock.

Ublox-2 - NAV-POSLLH (3)
	Lat: -1328494442.00
	Lon: -1208419664.00
	hMSL: 12646832.00

Ublox-2 - NAV-POSLLH (3)
	Lat: -1328494448.00
	Lon: -1208419670.00
	hMSL: 12647104.00

Ublox-2 - NAV-POSLLH (3)
	Lat: -1328494451.00
	Lon: -1208419673.00
	hMSL: 12647047.00

Ublox-2 - NAV-POSLLH (3)
	Lat: -1328494460.00
	Lon: -1208419675.00
	hMSL: 12647342.00

Ublox-2 - NAV-POSLLH (3)
	Lat: -1328494350.00
	Lon: -1208419675.00
	hMSL: 12647624.00

Ublox-2 - NAV-POSLLH (3)
	Lat: -1328494374.00
	Lon: -1208419681.00
	hMSL: 12647926.00

Ublox-2 - NAV-POSLLH (3)
	Lat: -1328494392.00
	Lon: -1208419686.00
	hMSL: 12648110.00

Ublox-2 - NAV-POSLLH (3)
	Lat: -1328494396.00
	Lon: -1208419687.00
	hMSL: 12648097.00

Ublox-2 - NAV-POSLLH (3)
	Lat: -1328494402.00
	Lon: -1208419690.00
	hMSL: 12648320.00

Ublox-2 - NAV-POSLLH (3)
	Lat: -1328494404.00
	Lon: -1208419694.00
	hMSL: 12648356.00

Ublox-2 - NAV-POSLLH (3)
	Lat: -1328494412.00
	Lon: -1208419697.00
	hMSL: 12648342.00

Ublox-2 - NAV-POSLLH (3)
	Lat: -1328494410.00
	Lon: -1208419695.00
	hMSL: 12648346.00

Ublox-2 - NAV-POSLLH (3)
	Lat: -1328494400.00
	Lon: -1208419692.00
	hMSL: 12648428.00

Ublox-2 - NAV-POSLLH (3)
	Lat: -1328494400.00
	Lon: -1208419695.00
	hMSL: 12648392.00

Ublox-2 - NAV-POSLLH (3)
	Lat: -1328494398.00
	Lon: -1208419694.00
	hMSL: 12648378.00

Ublox-2 - NAV-POSLLH (3)
	Lat: -1328494404.00
	Lon: -1208419691.00
	hMSL: 12648367.00

Ublox-2 - NAV-POSLLH (3)
	Lat: -1328494410.00
	Lon: -1208419689.00
	hMSL: 12648412.00

Ublox-2 - NAV-POSLLH (3)
	Lat: -1328494412.00
	Lon: -1208419687.00
	hMSL: 12648421.00

Ublox-2 - NAV-POSLLH (3)
	Lat: -1328494430.00
	Lon: -1208419693.00
	hMSL: 8388781.00

Ublox-2 - NAV-POSLLH (3)
	Lat: -1328494440.00
	Lon: -1208419693.00
	hMSL: 8388822.00

Ublox-2 - NAV-POSLLH (3)
	Lat: -1328494452.00
	Lon: -1208419690.00
	hMSL: 8421604.00

Ublox-2 - NAV-POSLLH (3)
	Lat: -1328494352.00
	Lon: -1208419689.00
	hMSL: 8421552.00

Ublox-2 - NAV-POSLLH (3)
	Lat: -1328494368.00
	Lon: -1208419685.00
	hMSL: 8421588.00

Ublox-2 - NAV-POSLLH (3)
	Lat: -1328494446.00
	Lon: -1208419661.00
	hMSL: 8388800.00

Ublox-2 - NAV-POSLLH (3)
	Lat: -1328494448.00
	Lon: -1208419653.00
	hMSL: 8388854.00

Ublox-2 - NAV-POSLLH (3)
	Lat: -1328494368.00
	Lon: -1208419602.00
	hMSL: 12647579.00

Ublox-2 - NAV-POSLLH (3)
	Lat: -1328494440.00
	Lon: -1208419200.00
	hMSL: 12646580.00

Ublox-2 - NAV-POSLLH (3)
	Lat: -1328494410.00
	Lon: -1208419178.00
	hMSL: 12645804.00

Ublox-2 - NAV-POSLLH (3)
	Lat: -1328494396.00
	Lon: -1208419130.00
	hMSL: 12645528.00

Ublox-2 - NAV-POSLLH (3)
	Lat: -1328494375.00
	Lon: -1208419193.00
	hMSL: 12644855.00

Ublox-2 - NAV-POSLLH (3)
	Lat: -1328494367.00
	Lon: -1208419165.00
	hMSL: 12644800.00

Ublox-2 - NAV-POSLLH (3)
	Lat: -1328494364.00
	Lon: -1208419151.00
	hMSL: 12644514.00

Ublox-2 - NAV-POSLLH (3)
	Lat: -1328494354.00
	Lon: -1208419125.00
	hMSL: 12644258.00

Ublox-2 - NAV-POSLLH (3)
	Lat: -1328494348.00
	Lon: -1208419109.00
	hMSL: 12644017.00

Ublox-2 - NAV-POSLLH (3)
	Lat: -1328494346.00
	Lon: -1208419097.00
	hMSL: 12644040.00

Ublox-2 - NAV-POSLLH (3)
	Lat: -1328494341.00
	Lon: -1208419081.00
	hMSL: 12643765.00

Ublox-2 - NAV-POSLLH (3)
	Lat: -1328494144.00
	Lon: -1208418624.00
	hMSL: 12643531.00

Ublox-2 - NAV-POSLLH (3)
	Lat: -1328494096.00
	Lon: -1208418640.00
	hMSL: 12643211.00

Ublox-2 - NAV-POSLLH (3)
	Lat: -1328494176.00
	Lon: -1208418592.00
	hMSL: 12643203.00

Ublox-2 - NAV-POSLLH (3)
	Lat: -1328494208.00
	Lon: -1208418660.00
	hMSL: 12643264.00

Ublox-2 - NAV-POSLLH (3)
	Lat: -1328494208.00
	Lon: -1208418616.00
	hMSL: 12643212.00

Ublox-2 - NAV-POSLLH (3)
	Lat: -1328494336.00
	Lon: -1208418564.00
	hMSL: 12643008.00

Ublox-2 - NAV-POSLLH (3)
	Lat: -1328494346.00
	Lon: -1208418686.00
	hMSL: 12643220.00

Ublox-2 - NAV-POSLLH (3)
	Lat: -1328494349.00
	Lon: -1208418680.00
	hMSL: 12643041.00

Ublox-2 - NAV-POSLLH (3)
	Lat: -1328494351.00
	Lon: -1208418674.00
	hMSL: 12642984.00

Ublox-2 - NAV-POSLLH (3)
	Lat: -1328494353.00
	Lon: -1208418664.00
	hMSL: 12643054.00

Ublox-2 - NAV-POSLLH (3)
	Lat: -1328494361.00
	Lon: -1208418670.00
	hMSL: 12643272.00

Ublox-2 - NAV-POSLLH (3)
	Lat: -1328494375.00
	Lon: -1208418670.00
	hMSL: 12643313.00

Ublox-2 - NAV-POSLLH (3)
	Lat: -1328494376.00
	Lon: -1208418646.00
	hMSL: 12643270.00

Ublox-2 - NAV-POSLLH (3)
	Lat: -1328494388.00
	Lon: -1208418640.00
	hMSL: 12643320.00

Ublox-2 - NAV-POSLLH (3)
	Lat: -1328494389.00
	Lon: -1208418624.00
	hMSL: 12643320.00

Ublox-2 - NAV-POSLLH (3)
	Lat: -1328494377.00
	Lon: -1208418590.00
	hMSL: 12643054.00

Ublox-2 - NAV-POSLLH (3)
	Lat: -1328494385.00
	Lon: -1208418588.00
	hMSL: 12642947.00

Ublox-2 - NAV-POSLLH (3)
	Lat: -1328494390.00
	Lon: -1208418582.00
	hMSL: 12643064.00

Ublox-2 - NAV-POSLLH (3)
	Lat: -1328494393.00
	Lon: -1208418566.00
	hMSL: 12642746.00

Ublox-2 - NAV-POSLLH (3)
	Lat: -1328494404.00
	Lon: -1208418572.00
	hMSL: 12643040.00

Ublox-2 - NAV-POSLLH (3)
	Lat: -1328494405.00
	Lon: -1208418570.00
	hMSL: 12643056.00

Ublox-2 - NAV-POSLLH (3)
	Lat: -1328494407.00
	Lon: -1208418574.00
	hMSL: 12642956.00

Ublox-2 - NAV-POSLLH (3)
	Lat: -1328494413.00
	Lon: -1208418570.00
	hMSL: 12643056.00

Ublox-2 - NAV-POSLLH (3)
	Lat: -1328494423.00
	Lon: -1208418568.00
	hMSL: 12643070.00

Ublox-2 - NAV-POSLLH (3)
	Lat: -1328494427.00
	Lon: -1208418686.00
	hMSL: 12643026.00

Ublox-2 - NAV-POSLLH (3)
	Lat: -1328494432.00
	Lon: -1208418682.00
	hMSL: 12643056.00

Ublox-2 - NAV-POSLLH (3)
	Lat: -1328494439.00
	Lon: -1208418680.00
	hMSL: 12642954.00

Ublox-2 - NAV-POSLLH (3)
	Lat: -1328494445.00
	Lon: -1208418675.00
	hMSL: 12642946.00

Ublox-2 - NAV-POSLLH (3)
	Lat: -1328494448.00
	Lon: -1208418674.00
	hMSL: 12642807.00

Ublox-2 - NAV-POSLLH (3)
	Lat: -1328494443.00
	Lon: -1208418672.00
	hMSL: 12642772.00

Ublox-2 - NAV-POSLLH (3)
	Lat: -1328494439.00
	Lon: -1208418669.00
	hMSL: 12642453.00

Ublox-2 - NAV-POSLLH (3)
	Lat: -1328494435.00
	Lon: -1208418664.00
	hMSL: 12642496.00

Ublox-2 - NAV-POSLLH (3)
	Lat: -1328494427.00
	Lon: -1208418659.00
	hMSL: 12642248.00

Ublox-2 - NAV-POSLLH (3)
	Lat: -1328494428.00
	Lon: -1208418655.00
	hMSL: 12642186.00

Ublox-2 - NAV-POSLLH (3)
	Lat: -1328494434.00
	Lon: -1208418648.00
	hMSL: 12642204.00

Ublox-2 - NAV-POSLLH (3)
	Lat: -1328494431.00
	Lon: -1208418640.00
	hMSL: 12642284.00

Ublox-2 - NAV-POSLLH (3)
	Lat: -1328494432.00
	Lon: -1208418637.00
	hMSL: 12642204.00

Ublox-2 - NAV-POSLLH (3)
	Lat: -1328494421.00
	Lon: -1208418625.00
	hMSL: 12641926.00

Ublox-2 - NAV-POSLLH (3)
	Lat: -1328494418.00
	Lon: -1208418625.00
	hMSL: 12641934.00

Ublox-2 - NAV-POSLLH (3)
	Lat: -1328494408.00
	Lon: -1208418616.00
	hMSL: 12641732.00

Ublox-2 - NAV-POSLLH (3)
	Lat: -1328494408.00
	Lon: -1208418612.00
	hMSL: 12641976.00

Ublox-2 - NAV-POSLLH (3)
	Lat: -1328494411.00
	Lon: -1208418605.00
	hMSL: 12641761.00

Ublox-2 - NAV-POSLLH (3)
	Lat: -1328494411.00
	Lon: -1208418609.00
	hMSL: 12641701.00

Ublox-2 - NAV-POSLLH (3)
	Lat: -1328494401.00
	Lon: -1208418628.00
	hMSL: 12641524.00

Ublox-2 - NAV-POSLLH (3)
	Lat: -1328494371.00
	Lon: -1208418616.00
	hMSL: 12640662.00

Ublox-2 - NAV-POSLLH (3)
	Lat: -1328494128.00
	Lon: -1208418616.00
	hMSL: 12639430.00

Ublox-2 - NAV-POSLLH (3)
	Lat: -1328494190.00
	Lon: -1208418601.00
	hMSL: 12638384.00

Ublox-2 - NAV-POSLLH (3)
	Lat: -1328494130.00
	Lon: -1208418594.00
	hMSL: 12637584.00

Ublox-2 - NAV-POSLLH (3)
	Lat: -1328494118.00
	Lon: -1208418613.00
	hMSL: 12637092.00

Ublox-2 - NAV-POSLLH (3)
	Lat: -1328494118.00
	Lon: -1208418636.00
	hMSL: 12636822.00

Ublox-2 - NAV-POSLLH (3)
	Lat: -1328494098.00
	Lon: -1208418647.00
	hMSL: 12636362.00

Ublox-2 - NAV-POSLLH (3)
	Lat: -1328494193.00
	Lon: -1208418642.00
	hMSL: 12635618.00

Ublox-2 - NAV-POSLLH (3)
	Lat: -1328494094.00
	Lon: -1208418649.00
	hMSL: 12635609.00

Ublox-2 - NAV-POSLLH (3)
	Lat: -1328494138.00
	Lon: -1208418650.00
	hMSL: 12635541.00

Ublox-2 - NAV-POSLLH (3)
	Lat: -1328494164.00
	Lon: -1208418640.00
	hMSL: 12635336.00

Ublox-2 - NAV-POSLLH (3)
	Lat: -1328494174.00
	Lon: -1208418633.00
	hMSL: 12635056.00

Ublox-2 - NAV-POSLLH (3)
	Lat: -1328494170.00
	Lon: -1208418626.00
	hMSL: 12634752.00

Ublox-2 - NAV-POSLLH (3)
	Lat: -1328494201.00
	Lon: -1208418566.00
	hMSL: 12632961.00

Ublox-2 - NAV-POSLLH (3)
	Lat: -1328494094.00
	Lon: -1208418570.00
	hMSL: 12633050.00

Ublox-2 - NAV-POSLLH (3)
	Lat: -1328494200.00
	Lon: -1208418566.00
	hMSL: 12632512.00

Ublox-2 - NAV-POSLLH (3)
	Lat: -1328494195.00
	Lon: -1208418574.00
	hMSL: 12632522.00

Ublox-2 - NAV-POSLLH (3)
	Lat: -1328494190.00
	Lon: -1208418577.00
	hMSL: 12632481.00

Ublox-2 - NAV-POSLLH (3)
	Lat: -1328494189.00
	Lon: -1208418579.00
	hMSL: 12632460.00

Ublox-2 - NAV-POSLLH (3)
	Lat: -1328494185.00
	Lon: -1208418582.00
	hMSL: 12632456.00

Ublox-2 - NAV-POSLLH (3)
	Lat: -1328494180.00
	Lon: -1208418589.00
	hMSL: 12632524.00

Ublox-2 - NAV-POSLLH (3)
	Lat: -1328494174.00
	Lon: -1208418591.00
	hMSL: 12632460.00

Ublox-2 - NAV-POSLLH (3)
	Lat: -1328494174.00
	Lon: -1208418593.00
	hMSL: 12632485.00

Ublox-2 - NAV-POSLLH (3)
	Lat: -1328494172.00
	Lon: -1208418596.00
	hMSL: 12632544.00

Ublox-2 - NAV-POSLLH (3)
	Lat: -1328494163.00
	Lon: -1208418597.00
	hMSL: 12632223.00

Ublox-2 - NAV-POSLLH (3)
	Lat: -1328494166.00
	Lon: -1208418581.00
	hMSL: 12631730.00

Ublox-2 - NAV-POSLLH (3)
	Lat: -1328494172.00
	Lon: -1208418593.00
	hMSL: 12632016.00

Ublox-2 - NAV-POSLLH (3)
	Lat: -1328494169.00
	Lon: -1208418605.00
	hMSL: 12631958.00

Ublox-2 - NAV-POSLLH (3)
	Lat: -1328494173.00
	Lon: -1208418618.00
	hMSL: 12632048.00

Ublox-2 - NAV-POSLLH (3)
	Lat: -1328494164.00
	Lon: -1208418603.00
	hMSL: 12631777.00

Ublox-2 - NAV-POSLLH (3)
	Lat: -1328494168.00
	Lon: -1208418597.00
	hMSL: 12631768.00

Ublox-2 - NAV-POSLLH (3)
	Lat: -1328494179.00
	Lon: -1208418614.00
	hMSL: 12632006.00

Ublox-2 - NAV-POSLLH (3)
	Lat: -1328494082.00
	Lon: -1208418644.00
	hMSL: 12632772.00

Ublox-2 - NAV-POSLLH (3)
	Lat: -1328494104.00
	Lon: -1208418647.00
	hMSL: 12632750.00

Ublox-2 - NAV-POSLLH (3)
	Lat: -1328494114.00
	Lon: -1208418650.00
	hMSL: 12633014.00

Ublox-2 - NAV-POSLLH (3)
	Lat: -1328494124.00
	Lon: -1208418644.00
	hMSL: 12633014.00

Ublox-2 - NAV-POSLLH (3)
	Lat: -1328494124.00
	Lon: -1208418639.00
	hMSL: 12633240.00

Ublox-2 - NAV-POSLLH (3)
	Lat: -1328494142.00
	Lon: -1208418617.00
	hMSL: 12633040.00

Ublox-2 - NAV-POSLLH (3)
	Lat: -1328494138.00
	Lon: -1208418604.00
	hMSL: 12632755.00

Ublox-2 - NAV-POSLLH (3)
	Lat: -1328494106.00
	Lon: -1208418567.00
	hMSL: 12632279.00

Ublox-2 - NAV-POSLLH (3)
	Lat: -1328494092.00
	Lon: -1208450944.00
	hMSL: 12631728.00

Ublox-2 - NAV-POSLLH (3)
	Lat: -1328494193.00
	Lon: -1208450820.00
	hMSL: 12631008.00

Ublox-2 - NAV-POSLLH (3)
	Lat: -1328494199.00
	Lon: -1208450848.00
	hMSL: 12630707.00

Ublox-2 - NAV-POSLLH (3)
	Lat: -1328494124.00
	Lon: -1208450900.00
	hMSL: 12630916.00

Ublox-2 - NAV-POSLLH (3)
	Lat: -1328494194.00
	Lon: -1208450856.00
	hMSL: 12631208.00

Ublox-2 - NAV-POSLLH (3)
	Lat: -1328494100.00
	Lon: -1208450928.00
	hMSL: 12631259.00

Ublox-2 - NAV-POSLLH (3)
	Lat: -1328494200.00
	Lon: -1208450896.00
	hMSL: 12631502.00

Ublox-2 - NAV-POSLLH (3)
	Lat: -1328494144.00
	Lon: -1208418567.00
	hMSL: 12632036.00

Ublox-2 - NAV-POSLLH (3)
	Lat: -1328494344.00
	Lon: -1208418569.00
	hMSL: 12631950.00

Ublox-2 - NAV-POSLLH (3)
	Lat: -1328494351.00
	Lon: -1208418567.00
	hMSL: 12631969.00

Ublox-2 - NAV-POSLLH (3)
	Lat: -1328494347.00
	Lon: -1208418566.00
	hMSL: 12632022.00

Ublox-2 - NAV-POSLLH (3)
	Lat: -1328494352.00
	Lon: -1208418567.00
	hMSL: 12631972.00

Ublox-2 - NAV-POSLLH (3)
	Lat: -1328494342.00
	Lon: -1208418569.00
	hMSL: 12631936.00

Ublox-2 - NAV-POSLLH (3)
	Lat: -1328494144.00
	Lon: -1208418565.00
	hMSL: 12631507.00

Ublox-2 - NAV-POSLLH (3)
	Lat: -1328494168.00
	Lon: -1208450880.00
	hMSL: 12630950.00

Ublox-2 - NAV-POSLLH (3)
	Lat: -1328494128.00
	Lon: -1208450928.00
	hMSL: 12630404.00

Ublox-2 - NAV-POSLLH (3)
	Lat: -1328494112.00
	Lon: -1208450880.00
	hMSL: 12630232.00

Ublox-2 - NAV-POSLLH (3)
	Lat: -1328494104.00
	Lon: -1208450944.00
	hMSL: 12629922.00

Ublox-2 - NAV-POSLLH (3)
	Lat: -1328494112.00
	Lon: -1208450832.00
	hMSL: 12629952.00

Ublox-2 - NAV-POSLLH (3)
	Lat: -1328494116.00
	Lon: -1208450864.00
	hMSL: 12629740.00

Ublox-2 - NAV-POSLLH (3)
	Lat: -1328494116.00
	Lon: -1208450944.00
	hMSL: 12629893.00

Ublox-2 - NAV-POSLLH (3)
	Lat: -1328494192.00
	Lon: -1208418563.00
	hMSL: 12630469.00

Ublox-2 - NAV-POSLLH (3)
	Lat: -1328494144.00
	Lon: -1208418571.00
	hMSL: 12630717.00

Ublox-2 - NAV-POSLLH (3)
	Lat: -1328494144.00
	Lon: -1208418579.00
	hMSL: 12631170.00

Ublox-2 - NAV-POSLLH (3)
	Lat: -1328494336.00
	Lon: -1208418587.00
	hMSL: 12631476.00

Ublox-2 - NAV-POSLLH (3)
	Lat: -1328494112.00
	Lon: -1208418580.00
	hMSL: 12631252.00

Ublox-2 - NAV-POSLLH (3)
	Lat: -1328494168.00
	Lon: -1208418579.00
	hMSL: 12631230.00

Ublox-2 - NAV-POSLLH (3)
	Lat: -1328494152.00
	Lon: -1208418579.00
	hMSL: 12631249.00

Ublox-2 - NAV-POSLLH (3)
	Lat: -1328494344.00
	Lon: -1208418612.00
	hMSL: 12632192.00

Ublox-2 - NAV-POSLLH (3)
	Lat: -1328494355.00
	Lon: -1208418630.00
	hMSL: 12632525.00

Ublox-2 - NAV-POSLLH (3)
	Lat: -1328494354.00
	Lon: -1208418636.00
	hMSL: 12632722.00

Ublox-2 - NAV-POSLLH (3)
	Lat: -1328494363.00
	Lon: -1208418641.00
	hMSL: 12633067.00

Ublox-2 - NAV-POSLLH (3)
	Lat: -1328494388.00
	Lon: -1208418657.00
	hMSL: 12633746.00

Ublox-2 - NAV-POSLLH (3)
	Lat: -1328494431.00
	Lon: -1208418681.00
	hMSL: 12635334.00

Ublox-2 - NAV-POSLLH (3)
	Lat: -1328494444.00
	Lon: -1208418568.00
	hMSL: 12635814.00

Ublox-2 - NAV-POSLLH (3)
	Lat: -1328494455.00
	Lon: -1208418578.00
	hMSL: 12636070.00

Ublox-2 - NAV-POSLLH (3)
	Lat: -1328494346.00
	Lon: -1208418582.00
	hMSL: 12636568.00

Ublox-2 - NAV-POSLLH (3)
	Lat: -1328494370.00
	Lon: -1208418586.00
	hMSL: 12636896.00

Ublox-2 - NAV-POSLLH (3)
	Lat: -1328494386.00
	Lon: -1208418584.00
	hMSL: 12637124.00

Ublox-2 - NAV-POSLLH (3)
	Lat: -1328494404.00
	Lon: -1208418584.00
	hMSL: 12637678.00

Ublox-2 - NAV-POSLLH (3)
	Lat: -1328494424.00
	Lon: -1208418590.00
	hMSL: 12637933.00

Ublox-2 - NAV-POSLLH (3)
	Lat: -1328494440.00
	Lon: -1208418602.00
	hMSL: 12638348.00

Ublox-2 - NAV-POSLLH (3)
	Lat: -1328494446.00
	Lon: -1208418616.00
	hMSL: 12638641.00

Ublox-2 - NAV-POSLLH (3)
	Lat: -1328494344.00
	Lon: -1208418620.00
	hMSL: 12639157.00

Ublox-2 - NAV-POSLLH (3)
	Lat: -1328494392.00
	Lon: -1208418620.00
	hMSL: 12639662.00

Ublox-2 - NAV-POSLLH (3)
	Lat: -1328494432.00
	Lon: -1208418614.00
	hMSL: 12639905.00

Ublox-2 - NAV-POSLLH (3)
	Lat: -1328494408.00
	Lon: -1208418604.00
	hMSL: 12640416.00

Ublox-2 - NAV-POSLLH (3)
	Lat: -1328494464.00
	Lon: -1208418600.00
	hMSL: 12640726.00

Ublox-2 - NAV-POSLLH (3)
	Lat: -1328494432.00
	Lon: -1208418594.00
	hMSL: 12640932.00

Ublox-2 - NAV-POSLLH (3)
	Lat: -1328494464.00
	Lon: -1208418590.00
	hMSL: 12641244.00

Ublox-2 - NAV-POSLLH (3)
	Lat: -1328494368.00
	Lon: -1208418588.00
	hMSL: 12641480.00

Ublox-2 - NAV-POSLLH (3)
	Lat: -1328494416.00
	Lon: -1208418584.00
	hMSL: 12641531.00

Ublox-2 - NAV-POSLLH (3)
	Lat: -1328494464.00
	Lon: -1208418572.00
	hMSL: 12641735.00

Ublox-2 - NAV-POSLLH (3)
	Lat: -1328494416.00
	Lon: -1208418562.00
	hMSL: 12641942.00

Ublox-2 - NAV-POSLLH (3)
	Lat: -1328494384.00
	Lon: -1208418686.00
	hMSL: 12642038.00

Ublox-2 - NAV-POSLLH (3)
	Lat: -1328494448.00
	Lon: -1208418681.00
	hMSL: 12641958.00

Ublox-2 - NAV-POSLLH (3)
	Lat: -1328494464.00
	Lon: -1208418677.00
	hMSL: 12641998.00

Ublox-2 - NAV-POSLLH (3)
	Lat: -1328494400.00
	Lon: -1208418673.00
	hMSL: 12642002.00

Ublox-2 - NAV-POSLLH (3)
	Lat: -1328494593.00
	Lon: -1208418671.00
	hMSL: 12641988.00

Ublox-2 - NAV-POSLLH (3)
	Lat: -1328494593.00
	Lon: -1208418669.00
	hMSL: 12641925.00

Ublox-2 - NAV-POSLLH (3)
	Lat: -1328494592.00
	Lon: -1208418667.00
	hMSL: 12641962.00

Ublox-2 - NAV-POSLLH (3)
	Lat: -1328494464.00
	Lon: -1208418666.00
	hMSL: 12641958.00

Ublox-2 - NAV-POSLLH (3)
	Lat: -1328494400.00
	Lon: -1208418665.00
	hMSL: 12641940.00
